{
  "last_updated": "2026-04-06T16:36:34.026476+00:00",
  "coverage": {
    "region": "Colorado River Basin",
    "bbox": {
      "min_lat": 31,
      "max_lat": 42,
      "min_lon": -115,
      "max_lon": -107
    },
    "description": "Includes Colorado, Utah, Nevada, Arizona, California, New Mexico, Wyoming"
  },
  "endpoints": {
    "data": "/api/data.json",
    "water": "/api/water.json",
    "snowpack": "/api/snowpack.json",
    "airquality": "/api/airquality.json",
    "wildfire": "/api/wildfire.json",
    "meta": "/api/meta.json"
  },
  "water": {
    "source": "USGS National Water Information System",
    "source_url": "https://waterservices.usgs.gov/",
    "description": "Real-time streamflow for Colorado River Basin gauges",
    "unit": "ft3/s (cubic feet per second)",
    "last_updated": "2026-04-06T16:36:34.026476+00:00",
    "gauges": [
      {
        "site_id": "09095500",
        "site_name": "Colorado River near Cameo, CO",
        "latitude": 39.2391463,
        "longitude": -108.2661946,
        "parameter": "Streamflow",
        "latest": {
          "value": 1570.0,
          "unit": "ft3/s",
          "datetime": "2026-04-06T10:15:00.000-06:00",
          "qualifiers": [
            "P"
          ]
        }
      },
      {
        "site_id": "09380000",
        "site_name": "Colorado River at Lees Ferry, AZ",
        "latitude": 36.86433333,
        "longitude": -111.58787222,
        "parameter": "Streamflow",
        "latest": {
          "value": 7870.0,
          "unit": "ft3/s",
          "datetime": "2026-04-06T09:00:00.000-07:00",
          "qualifiers": [
            "P"
          ]
        }
      },
      {
        "site_id": "09404200",
        "site_name": "Colorado River near Grand Canyon, AZ",
        "latitude": 35.7735994,
        "longitude": -113.363544,
        "parameter": "Streamflow",
        "latest": {
          "value": 8470.0,
          "unit": "ft3/s",
          "datetime": "2026-04-06T08:30:00.000-07:00",
          "qualifiers": [
            "P"
          ]
        }
      }
    ]
  },
  "snowpack": {
    "source": "USDA Natural Resources Conservation Service SNOTEL",
    "source_url": "https://www.nrcs.usda.gov/wps/portal/wcc/home/",
    "description": "Snow Water Equivalent (SWE) for Upper Colorado River Basin SNOTEL stations",
    "last_updated": "2026-04-06T16:36:34.026476+00:00",
    "stations": [
      {
        "station_id": "356",
        "station_name": "Berthoud Summit",
        "network": "SNOTEL",
        "state": "CO",
        "basin": "Upper Colorado River Basin",
        "date": "",
        "snow_water_equivalent_inches": null,
        "unit": "inches"
      }
    ]
  },
  "airquality": {
    "source": "Static monitoring station index (OpenAQ key required for live data)",
    "source_url": "https://openaq.org/",
    "description": "Air quality monitoring locations within 300km of Colorado River Basin center (36.5\u00b0N, 112.5\u00b0W)",
    "note": "OPENAQ_API_KEY not set; add as GitHub Actions secret for live data",
    "coverage": {
      "center_lat": 36.5,
      "center_lon": -112.5,
      "radius_km": 300
    },
    "last_updated": "2026-04-06T16:36:34.026476+00:00",
    "locations": [
      {
        "name": "Grand Canyon NPS",
        "latitude": 36.0544,
        "longitude": -112.1401,
        "locality": "Grand Canyon",
        "country": "US",
        "sensors": [
          {
            "parameter": "pm25",
            "unit": "\u00b5g/m\u00b3",
            "display_name": "PM2.5"
          },
          {
            "parameter": "ozone",
            "unit": "ppb",
            "display_name": "Ozone"
          }
        ]
      },
      {
        "name": "Flagstaff",
        "latitude": 35.1983,
        "longitude": -111.6513,
        "locality": "Flagstaff",
        "country": "US",
        "sensors": [
          {
            "parameter": "pm25",
            "unit": "\u00b5g/m\u00b3",
            "display_name": "PM2.5"
          },
          {
            "parameter": "pm10",
            "unit": "\u00b5g/m\u00b3",
            "display_name": "PM10"
          }
        ]
      },
      {
        "name": "Moab",
        "latitude": 38.5733,
        "longitude": -109.5498,
        "locality": "Moab",
        "country": "US",
        "sensors": [
          {
            "parameter": "pm25",
            "unit": "\u00b5g/m\u00b3",
            "display_name": "PM2.5"
          }
        ]
      },
      {
        "name": "Las Vegas - East Charleston",
        "latitude": 36.1699,
        "longitude": -115.1398,
        "locality": "Las Vegas",
        "country": "US",
        "sensors": [
          {
            "parameter": "pm25",
            "unit": "\u00b5g/m\u00b3",
            "display_name": "PM2.5"
          },
          {
            "parameter": "no2",
            "unit": "ppb",
            "display_name": "NO2"
          }
        ]
      },
      {
        "name": "St. George",
        "latitude": 37.0965,
        "longitude": -113.5684,
        "locality": "St. George",
        "country": "US",
        "sensors": [
          {
            "parameter": "pm25",
            "unit": "\u00b5g/m\u00b3",
            "display_name": "PM2.5"
          }
        ]
      },
      {
        "name": "Page",
        "latitude": 36.9147,
        "longitude": -111.4424,
        "locality": "Page",
        "country": "US",
        "sensors": [
          {
            "parameter": "pm25",
            "unit": "\u00b5g/m\u00b3",
            "display_name": "PM2.5"
          },
          {
            "parameter": "ozone",
            "unit": "ppb",
            "display_name": "Ozone"
          }
        ]
      }
    ]
  },
  "wildfire": {
    "source": "NASA FIRMS VIIRS NOAA-20 C2 (24h)",
    "source_url": "https://firms.modaps.eosdis.nasa.gov/",
    "description": "Active wildfires in the Colorado River Basin (31-42\u00b0N, 107-115\u00b0W), last 24 hours",
    "coverage_bbox": {
      "min_lat": 31,
      "max_lat": 42,
      "min_lon": -115,
      "max_lon": -107
    },
    "last_updated": "2026-04-06T16:36:34.026476+00:00",
    "fire_count": 17,
    "fires": [
      {
        "latitude": 39.68671,
        "longitude": -114.07289,
        "brightness": 299.36,
        "frp": 1.01,
        "confidence": "nominal",
        "acq_date": "2026-04-05",
        "acq_time": "0835",
        "satellite": "N20"
      },
      {
        "latitude": 39.68656,
        "longitude": -114.06963,
        "brightness": 301.68,
        "frp": 1.21,
        "confidence": "nominal",
        "acq_date": "2026-04-05",
        "acq_time": "0835",
        "satellite": "N20"
      },
      {
        "latitude": 40.82148,
        "longitude": -114.2578,
        "brightness": 298.9,
        "frp": 1.27,
        "confidence": "nominal",
        "acq_date": "2026-04-05",
        "acq_time": "0837",
        "satellite": "N20"
      },
      {
        "latitude": 36.35811,
        "longitude": -114.91382,
        "brightness": 310.42,
        "frp": 1.65,
        "confidence": "nominal",
        "acq_date": "2026-04-05",
        "acq_time": "0835",
        "satellite": "N20"
      },
      {
        "latitude": 36.36039,
        "longitude": -114.91338,
        "brightness": 309.18,
        "frp": 1.78,
        "confidence": "nominal",
        "acq_date": "2026-04-05",
        "acq_time": "0835",
        "satellite": "N20"
      },
      {
        "latitude": 40.82377,
        "longitude": -114.25467,
        "brightness": 306.1,
        "frp": 2.21,
        "confidence": "nominal",
        "acq_date": "2026-04-05",
        "acq_time": "1015",
        "satellite": "N20"
      },
      {
        "latitude": 39.68789,
        "longitude": -114.07162,
        "brightness": 302.49,
        "frp": 0.68,
        "confidence": "nominal",
        "acq_date": "2026-04-05",
        "acq_time": "1015",
        "satellite": "N20"
      },
      {
        "latitude": 38.94088,
        "longitude": -112.81534,
        "brightness": 308.16,
        "frp": 1.33,
        "confidence": "nominal",
        "acq_date": "2026-04-05",
        "acq_time": "1015",
        "satellite": "N20"
      },
      {
        "latitude": 36.38524,
        "longitude": -114.87604,
        "brightness": 298.72,
        "frp": 0.46,
        "confidence": "nominal",
        "acq_date": "2026-04-05",
        "acq_time": "1017",
        "satellite": "N20"
      },
      {
        "latitude": 36.3559,
        "longitude": -114.9134,
        "brightness": 306.03,
        "frp": 1.26,
        "confidence": "nominal",
        "acq_date": "2026-04-05",
        "acq_time": "1017",
        "satellite": "N20"
      },
      {
        "latitude": 34.78242,
        "longitude": -112.08533,
        "brightness": 296.75,
        "frp": 0.8,
        "confidence": "nominal",
        "acq_date": "2026-04-05",
        "acq_time": "1017",
        "satellite": "N20"
      },
      {
        "latitude": 40.62306,
        "longitude": -107.05801,
        "brightness": 329.18,
        "frp": 2.31,
        "confidence": "nominal",
        "acq_date": "2026-04-05",
        "acq_time": "1957",
        "satellite": "N20"
      },
      {
        "latitude": 38.93892,
        "longitude": -112.81864,
        "brightness": 298.59,
        "frp": 1.54,
        "confidence": "nominal",
        "acq_date": "2026-04-06",
        "acq_time": "0816",
        "satellite": "N20"
      },
      {
        "latitude": 38.93675,
        "longitude": -112.82167,
        "brightness": 295.53,
        "frp": 1.9,
        "confidence": "nominal",
        "acq_date": "2026-04-06",
        "acq_time": "0816",
        "satellite": "N20"
      },
      {
        "latitude": 40.82455,
        "longitude": -114.25655,
        "brightness": 297.59,
        "frp": 1.55,
        "confidence": "nominal",
        "acq_date": "2026-04-06",
        "acq_time": "0958",
        "satellite": "N20"
      },
      {
        "latitude": 40.82089,
        "longitude": -114.25823,
        "brightness": 301.57,
        "frp": 1.55,
        "confidence": "nominal",
        "acq_date": "2026-04-06",
        "acq_time": "0958",
        "satellite": "N20"
      },
      {
        "latitude": 38.93799,
        "longitude": -112.81859,
        "brightness": 319.7,
        "frp": 2.38,
        "confidence": "nominal",
        "acq_date": "2026-04-06",
        "acq_time": "0958",
        "satellite": "N20"
      }
    ]
  }
}