{
  "last_updated": "2026-04-15T13:03:03.529648+00:00",
  "coverage": {
    "region": "Colorado River Basin",
    "bbox": {
      "min_lat": 31,
      "max_lat": 42,
      "min_lon": -115,
      "max_lon": -107
    },
    "description": "Includes Colorado, Utah, Nevada, Arizona, California, New Mexico, Wyoming"
  },
  "endpoints": {
    "data": "/api/data.json",
    "water": "/api/water.json",
    "snowpack": "/api/snowpack.json",
    "airquality": "/api/airquality.json",
    "wildfire": "/api/wildfire.json",
    "meta": "/api/meta.json"
  },
  "water": {
    "source": "USGS National Water Information System",
    "source_url": "https://waterservices.usgs.gov/",
    "description": "Real-time streamflow for Colorado River Basin gauges",
    "unit": "ft3/s (cubic feet per second)",
    "last_updated": "2026-04-15T13:03:03.529648+00:00",
    "gauges": [
      {
        "site_id": "09095500",
        "site_name": "Colorado River near Cameo, CO",
        "latitude": 39.2391463,
        "longitude": -108.2661946,
        "parameter": "Streamflow",
        "latest": {
          "value": 1980.0,
          "unit": "ft3/s",
          "datetime": "2026-04-15T06:45:00.000-06:00",
          "qualifiers": [
            "P"
          ]
        }
      },
      {
        "site_id": "09380000",
        "site_name": "Colorado River at Lees Ferry, AZ",
        "latitude": 36.86433333,
        "longitude": -111.58787222,
        "parameter": "Streamflow",
        "latest": {
          "value": 7840.0,
          "unit": "ft3/s",
          "datetime": "2026-04-15T05:00:00.000-07:00",
          "qualifiers": [
            "P"
          ]
        }
      },
      {
        "site_id": "09404200",
        "site_name": "Colorado River near Grand Canyon, AZ",
        "latitude": 35.7735994,
        "longitude": -113.363544,
        "parameter": "Streamflow",
        "latest": {
          "value": 8570.0,
          "unit": "ft3/s",
          "datetime": "2026-04-15T05:30:00.000-07:00",
          "qualifiers": [
            "P"
          ]
        }
      }
    ]
  },
  "snowpack": {
    "source": "USDA Natural Resources Conservation Service SNOTEL",
    "source_url": "https://www.nrcs.usda.gov/wps/portal/wcc/home/",
    "description": "Snow Water Equivalent (SWE) for Upper Colorado River Basin SNOTEL stations",
    "last_updated": "2026-04-15T13:03:03.529648+00:00",
    "stations": [
      {
        "station_id": "356",
        "station_name": "Berthoud Summit",
        "network": "SNOTEL",
        "state": "CO",
        "basin": "Upper Colorado River Basin",
        "date": "",
        "snow_water_equivalent_inches": null,
        "unit": "inches"
      }
    ]
  },
  "airquality": {
    "source": "Static monitoring station index (OpenAQ key required for live data)",
    "source_url": "https://openaq.org/",
    "description": "Air quality monitoring locations within 300km of Colorado River Basin center (36.5\u00b0N, 112.5\u00b0W)",
    "note": "OPENAQ_API_KEY not set; add as GitHub Actions secret for live data",
    "coverage": {
      "center_lat": 36.5,
      "center_lon": -112.5,
      "radius_km": 300
    },
    "last_updated": "2026-04-15T13:03:03.529648+00:00",
    "locations": [
      {
        "name": "Grand Canyon NPS",
        "latitude": 36.0544,
        "longitude": -112.1401,
        "locality": "Grand Canyon",
        "country": "US",
        "sensors": [
          {
            "parameter": "pm25",
            "unit": "\u00b5g/m\u00b3",
            "display_name": "PM2.5"
          },
          {
            "parameter": "ozone",
            "unit": "ppb",
            "display_name": "Ozone"
          }
        ]
      },
      {
        "name": "Flagstaff",
        "latitude": 35.1983,
        "longitude": -111.6513,
        "locality": "Flagstaff",
        "country": "US",
        "sensors": [
          {
            "parameter": "pm25",
            "unit": "\u00b5g/m\u00b3",
            "display_name": "PM2.5"
          },
          {
            "parameter": "pm10",
            "unit": "\u00b5g/m\u00b3",
            "display_name": "PM10"
          }
        ]
      },
      {
        "name": "Moab",
        "latitude": 38.5733,
        "longitude": -109.5498,
        "locality": "Moab",
        "country": "US",
        "sensors": [
          {
            "parameter": "pm25",
            "unit": "\u00b5g/m\u00b3",
            "display_name": "PM2.5"
          }
        ]
      },
      {
        "name": "Las Vegas - East Charleston",
        "latitude": 36.1699,
        "longitude": -115.1398,
        "locality": "Las Vegas",
        "country": "US",
        "sensors": [
          {
            "parameter": "pm25",
            "unit": "\u00b5g/m\u00b3",
            "display_name": "PM2.5"
          },
          {
            "parameter": "no2",
            "unit": "ppb",
            "display_name": "NO2"
          }
        ]
      },
      {
        "name": "St. George",
        "latitude": 37.0965,
        "longitude": -113.5684,
        "locality": "St. George",
        "country": "US",
        "sensors": [
          {
            "parameter": "pm25",
            "unit": "\u00b5g/m\u00b3",
            "display_name": "PM2.5"
          }
        ]
      },
      {
        "name": "Page",
        "latitude": 36.9147,
        "longitude": -111.4424,
        "locality": "Page",
        "country": "US",
        "sensors": [
          {
            "parameter": "pm25",
            "unit": "\u00b5g/m\u00b3",
            "display_name": "PM2.5"
          },
          {
            "parameter": "ozone",
            "unit": "ppb",
            "display_name": "Ozone"
          }
        ]
      }
    ]
  },
  "wildfire": {
    "source": "NASA FIRMS VIIRS NOAA-20 C2 (24h)",
    "source_url": "https://firms.modaps.eosdis.nasa.gov/",
    "description": "Active wildfires in the Colorado River Basin (31-42\u00b0N, 107-115\u00b0W), last 24 hours",
    "coverage_bbox": {
      "min_lat": 31,
      "max_lat": 42,
      "min_lon": -115,
      "max_lon": -107
    },
    "last_updated": "2026-04-15T13:03:03.529648+00:00",
    "fire_count": 11,
    "fires": [
      {
        "latitude": 36.38387,
        "longitude": -114.87765,
        "brightness": 302.51,
        "frp": 0.52,
        "confidence": "nominal",
        "acq_date": "2026-04-14",
        "acq_time": "0907",
        "satellite": "N20"
      },
      {
        "latitude": 36.35782,
        "longitude": -114.91067,
        "brightness": 308.5,
        "frp": 1.71,
        "confidence": "nominal",
        "acq_date": "2026-04-14",
        "acq_time": "0907",
        "satellite": "N20"
      },
      {
        "latitude": 33.67968,
        "longitude": -112.47724,
        "brightness": 297.19,
        "frp": 0.62,
        "confidence": "nominal",
        "acq_date": "2026-04-14",
        "acq_time": "0909",
        "satellite": "N20"
      },
      {
        "latitude": 33.42045,
        "longitude": -110.86137,
        "brightness": 320.73,
        "frp": 1.98,
        "confidence": "nominal",
        "acq_date": "2026-04-14",
        "acq_time": "0909",
        "satellite": "N20"
      },
      {
        "latitude": 38.93655,
        "longitude": -112.81857,
        "brightness": 296.57,
        "frp": 1.65,
        "confidence": "nominal",
        "acq_date": "2026-04-15",
        "acq_time": "0848",
        "satellite": "N20"
      },
      {
        "latitude": 36.3576,
        "longitude": -114.91344,
        "brightness": 300.24,
        "frp": 0.71,
        "confidence": "nominal",
        "acq_date": "2026-04-15",
        "acq_time": "0850",
        "satellite": "N20"
      },
      {
        "latitude": 36.35733,
        "longitude": -114.90953,
        "brightness": 299.89,
        "frp": 0.71,
        "confidence": "nominal",
        "acq_date": "2026-04-15",
        "acq_time": "0850",
        "satellite": "N20"
      },
      {
        "latitude": 33.41908,
        "longitude": -110.86113,
        "brightness": 337.83,
        "frp": 8.51,
        "confidence": "nominal",
        "acq_date": "2026-04-15",
        "acq_time": "0850",
        "satellite": "N20"
      },
      {
        "latitude": 32.19026,
        "longitude": -114.98767,
        "brightness": 299.56,
        "frp": 0.28,
        "confidence": "nominal",
        "acq_date": "2026-04-15",
        "acq_time": "0850",
        "satellite": "N20"
      },
      {
        "latitude": 38.93843,
        "longitude": -112.8204,
        "brightness": 297.08,
        "frp": 1.77,
        "confidence": "nominal",
        "acq_date": "2026-04-15",
        "acq_time": "1028",
        "satellite": "N20"
      },
      {
        "latitude": 36.36019,
        "longitude": -114.91356,
        "brightness": 295.71,
        "frp": 1.04,
        "confidence": "nominal",
        "acq_date": "2026-04-15",
        "acq_time": "1030",
        "satellite": "N20"
      }
    ]
  }
}