{
  "last_updated": "2026-03-07T10:15:02.655596+00:00",
  "coverage": {
    "region": "Colorado River Basin",
    "bbox": {
      "min_lat": 31,
      "max_lat": 42,
      "min_lon": -115,
      "max_lon": -107
    },
    "description": "Includes Colorado, Utah, Nevada, Arizona, California, New Mexico, Wyoming"
  },
  "endpoints": {
    "data": "/api/data.json",
    "water": "/api/water.json",
    "snowpack": "/api/snowpack.json",
    "airquality": "/api/airquality.json",
    "wildfire": "/api/wildfire.json",
    "meta": "/api/meta.json"
  },
  "water": {
    "source": "USGS National Water Information System",
    "source_url": "https://waterservices.usgs.gov/",
    "description": "Real-time streamflow for Colorado River Basin gauges",
    "unit": "ft3/s (cubic feet per second)",
    "last_updated": "2026-03-07T10:15:02.655596+00:00",
    "gauges": [
      {
        "site_id": "09095500",
        "site_name": "Colorado River near Cameo, CO",
        "latitude": 39.2391463,
        "longitude": -108.2661946,
        "parameter": "Streamflow",
        "latest": {
          "value": 1290.0,
          "unit": "ft3/s",
          "datetime": "2026-03-07T03:00:00.000-07:00",
          "qualifiers": [
            "P"
          ]
        }
      },
      {
        "site_id": "09380000",
        "site_name": "Colorado River at Lees Ferry, AZ",
        "latitude": 36.86433333,
        "longitude": -111.58787222,
        "parameter": "Streamflow",
        "latest": {
          "value": 7180.0,
          "unit": "ft3/s",
          "datetime": "2026-03-07T03:00:00.000-07:00",
          "qualifiers": [
            "P"
          ]
        }
      },
      {
        "site_id": "09404200",
        "site_name": "Colorado River near Grand Canyon, AZ",
        "latitude": 35.7735994,
        "longitude": -113.363544,
        "parameter": "Streamflow",
        "latest": {
          "value": 9000.0,
          "unit": "ft3/s",
          "datetime": "2026-03-07T02:30:00.000-07:00",
          "qualifiers": [
            "P"
          ]
        }
      }
    ]
  },
  "snowpack": {
    "source": "USDA Natural Resources Conservation Service SNOTEL",
    "source_url": "https://www.nrcs.usda.gov/wps/portal/wcc/home/",
    "description": "Snow Water Equivalent (SWE) for Upper Colorado River Basin SNOTEL stations",
    "last_updated": "2026-03-07T10:15:02.655596+00:00",
    "stations": [
      {
        "station_id": "356",
        "station_name": "Berthoud Summit",
        "network": "SNOTEL",
        "state": "CO",
        "basin": "Upper Colorado River Basin",
        "date": "",
        "snow_water_equivalent_inches": null,
        "unit": "inches"
      }
    ]
  },
  "airquality": {
    "source": "Static monitoring station index (OpenAQ key required for live data)",
    "source_url": "https://openaq.org/",
    "description": "Air quality monitoring locations within 300km of Colorado River Basin center (36.5\u00b0N, 112.5\u00b0W)",
    "note": "OPENAQ_API_KEY not set; add as GitHub Actions secret for live data",
    "coverage": {
      "center_lat": 36.5,
      "center_lon": -112.5,
      "radius_km": 300
    },
    "last_updated": "2026-03-07T10:15:02.655596+00:00",
    "locations": [
      {
        "name": "Grand Canyon NPS",
        "latitude": 36.0544,
        "longitude": -112.1401,
        "locality": "Grand Canyon",
        "country": "US",
        "sensors": [
          {
            "parameter": "pm25",
            "unit": "\u00b5g/m\u00b3",
            "display_name": "PM2.5"
          },
          {
            "parameter": "ozone",
            "unit": "ppb",
            "display_name": "Ozone"
          }
        ]
      },
      {
        "name": "Flagstaff",
        "latitude": 35.1983,
        "longitude": -111.6513,
        "locality": "Flagstaff",
        "country": "US",
        "sensors": [
          {
            "parameter": "pm25",
            "unit": "\u00b5g/m\u00b3",
            "display_name": "PM2.5"
          },
          {
            "parameter": "pm10",
            "unit": "\u00b5g/m\u00b3",
            "display_name": "PM10"
          }
        ]
      },
      {
        "name": "Moab",
        "latitude": 38.5733,
        "longitude": -109.5498,
        "locality": "Moab",
        "country": "US",
        "sensors": [
          {
            "parameter": "pm25",
            "unit": "\u00b5g/m\u00b3",
            "display_name": "PM2.5"
          }
        ]
      },
      {
        "name": "Las Vegas - East Charleston",
        "latitude": 36.1699,
        "longitude": -115.1398,
        "locality": "Las Vegas",
        "country": "US",
        "sensors": [
          {
            "parameter": "pm25",
            "unit": "\u00b5g/m\u00b3",
            "display_name": "PM2.5"
          },
          {
            "parameter": "no2",
            "unit": "ppb",
            "display_name": "NO2"
          }
        ]
      },
      {
        "name": "St. George",
        "latitude": 37.0965,
        "longitude": -113.5684,
        "locality": "St. George",
        "country": "US",
        "sensors": [
          {
            "parameter": "pm25",
            "unit": "\u00b5g/m\u00b3",
            "display_name": "PM2.5"
          }
        ]
      },
      {
        "name": "Page",
        "latitude": 36.9147,
        "longitude": -111.4424,
        "locality": "Page",
        "country": "US",
        "sensors": [
          {
            "parameter": "pm25",
            "unit": "\u00b5g/m\u00b3",
            "display_name": "PM2.5"
          },
          {
            "parameter": "ozone",
            "unit": "ppb",
            "display_name": "Ozone"
          }
        ]
      }
    ]
  },
  "wildfire": {
    "source": "NASA FIRMS VIIRS NOAA-20 C2 (24h)",
    "source_url": "https://firms.modaps.eosdis.nasa.gov/",
    "description": "Active wildfires in the Colorado River Basin (31-42\u00b0N, 107-115\u00b0W), last 24 hours",
    "coverage_bbox": {
      "min_lat": 31,
      "max_lat": 42,
      "min_lon": -115,
      "max_lon": -107
    },
    "last_updated": "2026-03-07T10:15:02.655596+00:00",
    "fire_count": 16,
    "fires": [
      {
        "latitude": 40.82367,
        "longitude": -114.256,
        "brightness": 298.75,
        "frp": 0.75,
        "confidence": "nominal",
        "acq_date": "2026-03-06",
        "acq_time": "0938",
        "satellite": "N20"
      },
      {
        "latitude": 36.3829,
        "longitude": -114.87695,
        "brightness": 309.63,
        "frp": 0.95,
        "confidence": "nominal",
        "acq_date": "2026-03-06",
        "acq_time": "0941",
        "satellite": "N20"
      },
      {
        "latitude": 36.35753,
        "longitude": -114.91135,
        "brightness": 303.57,
        "frp": 1.01,
        "confidence": "nominal",
        "acq_date": "2026-03-06",
        "acq_time": "0941",
        "satellite": "N20"
      },
      {
        "latitude": 35.51749,
        "longitude": -113.31577,
        "brightness": 297.8,
        "frp": 0.89,
        "confidence": "nominal",
        "acq_date": "2026-03-06",
        "acq_time": "0941",
        "satellite": "N20"
      },
      {
        "latitude": 33.42157,
        "longitude": -110.86206,
        "brightness": 336.45,
        "frp": 3.08,
        "confidence": "nominal",
        "acq_date": "2026-03-06",
        "acq_time": "0941",
        "satellite": "N20"
      },
      {
        "latitude": 33.41746,
        "longitude": -110.86324,
        "brightness": 295.79,
        "frp": 3.08,
        "confidence": "nominal",
        "acq_date": "2026-03-06",
        "acq_time": "0941",
        "satellite": "N20"
      },
      {
        "latitude": 33.41236,
        "longitude": -110.85976,
        "brightness": 298.97,
        "frp": 0.92,
        "confidence": "nominal",
        "acq_date": "2026-03-06",
        "acq_time": "0941",
        "satellite": "N20"
      },
      {
        "latitude": 32.71373,
        "longitude": -114.76145,
        "brightness": 315.1,
        "frp": 1.46,
        "confidence": "nominal",
        "acq_date": "2026-03-06",
        "acq_time": "0941",
        "satellite": "N20"
      },
      {
        "latitude": 32.43206,
        "longitude": -114.97528,
        "brightness": 337.9,
        "frp": 5.62,
        "confidence": "nominal",
        "acq_date": "2026-03-06",
        "acq_time": "2057",
        "satellite": "N20"
      },
      {
        "latitude": 32.42912,
        "longitude": -114.9777,
        "brightness": 336.01,
        "frp": 4.76,
        "confidence": "low",
        "acq_date": "2026-03-06",
        "acq_time": "2057",
        "satellite": "N20"
      },
      {
        "latitude": 33.42027,
        "longitude": -110.86067,
        "brightness": 335.78,
        "frp": 3.59,
        "confidence": "nominal",
        "acq_date": "2026-03-06",
        "acq_time": "2057",
        "satellite": "N20"
      },
      {
        "latitude": 33.56137,
        "longitude": -109.42081,
        "brightness": 347.29,
        "frp": 45.75,
        "confidence": "nominal",
        "acq_date": "2026-03-06",
        "acq_time": "2057",
        "satellite": "N20"
      },
      {
        "latitude": 33.56094,
        "longitude": -109.42651,
        "brightness": 338.29,
        "frp": 45.75,
        "confidence": "nominal",
        "acq_date": "2026-03-06",
        "acq_time": "2057",
        "satellite": "N20"
      },
      {
        "latitude": 33.67125,
        "longitude": -111.67925,
        "brightness": 337.39,
        "frp": 4.11,
        "confidence": "nominal",
        "acq_date": "2026-03-06",
        "acq_time": "2057",
        "satellite": "N20"
      },
      {
        "latitude": 34.32613,
        "longitude": -111.1379,
        "brightness": 330.09,
        "frp": 4.8,
        "confidence": "nominal",
        "acq_date": "2026-03-06",
        "acq_time": "2059",
        "satellite": "N20"
      },
      {
        "latitude": 34.32661,
        "longitude": -111.14179,
        "brightness": 334.0,
        "frp": 8.76,
        "confidence": "nominal",
        "acq_date": "2026-03-06",
        "acq_time": "2059",
        "satellite": "N20"
      }
    ]
  }
}