{
  "last_updated": "2026-05-19T10:32:54.610974+00:00",
  "coverage": {
    "region": "Colorado River Basin",
    "bbox": {
      "min_lat": 31,
      "max_lat": 42,
      "min_lon": -115,
      "max_lon": -107
    },
    "description": "Includes Colorado, Utah, Nevada, Arizona, California, New Mexico, Wyoming"
  },
  "endpoints": {
    "data": "/api/data.json",
    "water": "/api/water.json",
    "snowpack": "/api/snowpack.json",
    "airquality": "/api/airquality.json",
    "wildfire": "/api/wildfire.json",
    "meta": "/api/meta.json"
  },
  "water": {
    "source": "USGS National Water Information System",
    "source_url": "https://waterservices.usgs.gov/",
    "description": "Real-time streamflow for Colorado River Basin gauges",
    "unit": "ft3/s (cubic feet per second)",
    "last_updated": "2026-05-19T10:32:54.610974+00:00",
    "gauges": [
      {
        "site_id": "09095500",
        "site_name": "Colorado River near Cameo, CO",
        "latitude": 39.2391463,
        "longitude": -108.2661946,
        "parameter": "Streamflow",
        "latest": {
          "value": 3240.0,
          "unit": "ft3/s",
          "datetime": "2026-05-19T04:15:00.000-06:00",
          "qualifiers": [
            "P"
          ]
        }
      },
      {
        "site_id": "09380000",
        "site_name": "Colorado River at Lees Ferry, AZ",
        "latitude": 36.86433333,
        "longitude": -111.58787222,
        "parameter": "Streamflow",
        "latest": {
          "value": 6900.0,
          "unit": "ft3/s",
          "datetime": "2026-05-19T03:00:00.000-07:00",
          "qualifiers": [
            "P"
          ]
        }
      },
      {
        "site_id": "09404200",
        "site_name": "Colorado River near Grand Canyon, AZ",
        "latitude": 35.7735994,
        "longitude": -113.363544,
        "parameter": "Streamflow",
        "latest": {
          "value": 7570.0,
          "unit": "ft3/s",
          "datetime": "2026-05-19T02:30:00.000-07:00",
          "qualifiers": [
            "P"
          ]
        }
      }
    ]
  },
  "snowpack": {
    "source": "USDA Natural Resources Conservation Service SNOTEL",
    "source_url": "https://www.nrcs.usda.gov/wps/portal/wcc/home/",
    "description": "Snow Water Equivalent (SWE) for Upper Colorado River Basin SNOTEL stations",
    "last_updated": "2026-05-19T10:32:54.610974+00:00",
    "stations": [
      {
        "station_id": "356",
        "station_name": "Berthoud Summit",
        "network": "SNOTEL",
        "state": "CO",
        "basin": "Upper Colorado River Basin",
        "date": "",
        "snow_water_equivalent_inches": null,
        "unit": "inches"
      }
    ]
  },
  "airquality": {
    "source": "Static monitoring station index (OpenAQ key required for live data)",
    "source_url": "https://openaq.org/",
    "description": "Air quality monitoring locations within 300km of Colorado River Basin center (36.5\u00b0N, 112.5\u00b0W)",
    "note": "OPENAQ_API_KEY not set; add as GitHub Actions secret for live data",
    "coverage": {
      "center_lat": 36.5,
      "center_lon": -112.5,
      "radius_km": 300
    },
    "last_updated": "2026-05-19T10:32:54.610974+00:00",
    "locations": [
      {
        "name": "Grand Canyon NPS",
        "latitude": 36.0544,
        "longitude": -112.1401,
        "locality": "Grand Canyon",
        "country": "US",
        "sensors": [
          {
            "parameter": "pm25",
            "unit": "\u00b5g/m\u00b3",
            "display_name": "PM2.5"
          },
          {
            "parameter": "ozone",
            "unit": "ppb",
            "display_name": "Ozone"
          }
        ]
      },
      {
        "name": "Flagstaff",
        "latitude": 35.1983,
        "longitude": -111.6513,
        "locality": "Flagstaff",
        "country": "US",
        "sensors": [
          {
            "parameter": "pm25",
            "unit": "\u00b5g/m\u00b3",
            "display_name": "PM2.5"
          },
          {
            "parameter": "pm10",
            "unit": "\u00b5g/m\u00b3",
            "display_name": "PM10"
          }
        ]
      },
      {
        "name": "Moab",
        "latitude": 38.5733,
        "longitude": -109.5498,
        "locality": "Moab",
        "country": "US",
        "sensors": [
          {
            "parameter": "pm25",
            "unit": "\u00b5g/m\u00b3",
            "display_name": "PM2.5"
          }
        ]
      },
      {
        "name": "Las Vegas - East Charleston",
        "latitude": 36.1699,
        "longitude": -115.1398,
        "locality": "Las Vegas",
        "country": "US",
        "sensors": [
          {
            "parameter": "pm25",
            "unit": "\u00b5g/m\u00b3",
            "display_name": "PM2.5"
          },
          {
            "parameter": "no2",
            "unit": "ppb",
            "display_name": "NO2"
          }
        ]
      },
      {
        "name": "St. George",
        "latitude": 37.0965,
        "longitude": -113.5684,
        "locality": "St. George",
        "country": "US",
        "sensors": [
          {
            "parameter": "pm25",
            "unit": "\u00b5g/m\u00b3",
            "display_name": "PM2.5"
          }
        ]
      },
      {
        "name": "Page",
        "latitude": 36.9147,
        "longitude": -111.4424,
        "locality": "Page",
        "country": "US",
        "sensors": [
          {
            "parameter": "pm25",
            "unit": "\u00b5g/m\u00b3",
            "display_name": "PM2.5"
          },
          {
            "parameter": "ozone",
            "unit": "ppb",
            "display_name": "Ozone"
          }
        ]
      }
    ]
  },
  "wildfire": {
    "source": "NASA FIRMS VIIRS NOAA-20 C2 (24h)",
    "source_url": "https://firms.modaps.eosdis.nasa.gov/",
    "description": "Active wildfires in the Colorado River Basin (31-42\u00b0N, 107-115\u00b0W), last 24 hours",
    "coverage_bbox": {
      "min_lat": 31,
      "max_lat": 42,
      "min_lon": -115,
      "max_lon": -107
    },
    "last_updated": "2026-05-19T10:32:54.610974+00:00",
    "fire_count": 16,
    "fires": [
      {
        "latitude": 33.3573,
        "longitude": -108.60481,
        "brightness": 317.59,
        "frp": 4.54,
        "confidence": "nominal",
        "acq_date": "2026-05-18",
        "acq_time": "0833",
        "satellite": "N20"
      },
      {
        "latitude": 33.35307,
        "longitude": -108.61068,
        "brightness": 338.76,
        "frp": 9.34,
        "confidence": "nominal",
        "acq_date": "2026-05-18",
        "acq_time": "0833",
        "satellite": "N20"
      },
      {
        "latitude": 33.35257,
        "longitude": -108.60506,
        "brightness": 328.67,
        "frp": 4.54,
        "confidence": "nominal",
        "acq_date": "2026-05-18",
        "acq_time": "0833",
        "satellite": "N20"
      },
      {
        "latitude": 33.42081,
        "longitude": -110.86304,
        "brightness": 333.38,
        "frp": 4.51,
        "confidence": "nominal",
        "acq_date": "2026-05-18",
        "acq_time": "0833",
        "satellite": "N20"
      },
      {
        "latitude": 33.42055,
        "longitude": -110.85922,
        "brightness": 338.88,
        "frp": 4.51,
        "confidence": "nominal",
        "acq_date": "2026-05-18",
        "acq_time": "0833",
        "satellite": "N20"
      },
      {
        "latitude": 33.41843,
        "longitude": -110.85886,
        "brightness": 296.2,
        "frp": 0.81,
        "confidence": "nominal",
        "acq_date": "2026-05-18",
        "acq_time": "1011",
        "satellite": "N20"
      },
      {
        "latitude": 32.39491,
        "longitude": -114.80958,
        "brightness": 297.66,
        "frp": 0.34,
        "confidence": "nominal",
        "acq_date": "2026-05-18",
        "acq_time": "1011",
        "satellite": "N20"
      },
      {
        "latitude": 40.82407,
        "longitude": -114.25723,
        "brightness": 307.88,
        "frp": 2.4,
        "confidence": "nominal",
        "acq_date": "2026-05-18",
        "acq_time": "1011",
        "satellite": "N20"
      },
      {
        "latitude": 33.41514,
        "longitude": -110.85945,
        "brightness": 299.06,
        "frp": 0.99,
        "confidence": "nominal",
        "acq_date": "2026-05-18",
        "acq_time": "1013",
        "satellite": "N20"
      },
      {
        "latitude": 32.18018,
        "longitude": -110.87026,
        "brightness": 352.8,
        "frp": 3.84,
        "confidence": "nominal",
        "acq_date": "2026-05-18",
        "acq_time": "1949",
        "satellite": "N20"
      },
      {
        "latitude": 32.18098,
        "longitude": -110.8669,
        "brightness": 356.42,
        "frp": 3.84,
        "confidence": "low",
        "acq_date": "2026-05-18",
        "acq_time": "1949",
        "satellite": "N20"
      },
      {
        "latitude": 32.722,
        "longitude": -111.57619,
        "brightness": 338.2,
        "frp": 2.18,
        "confidence": "nominal",
        "acq_date": "2026-05-18",
        "acq_time": "1949",
        "satellite": "N20"
      },
      {
        "latitude": 33.09167,
        "longitude": -111.49279,
        "brightness": 337.76,
        "frp": 2.65,
        "confidence": "low",
        "acq_date": "2026-05-18",
        "acq_time": "1949",
        "satellite": "N20"
      },
      {
        "latitude": 32.95087,
        "longitude": -112.13084,
        "brightness": 335.18,
        "frp": 3.74,
        "confidence": "low",
        "acq_date": "2026-05-18",
        "acq_time": "1949",
        "satellite": "N20"
      },
      {
        "latitude": 33.41711,
        "longitude": -110.85839,
        "brightness": 338.98,
        "frp": 7.27,
        "confidence": "nominal",
        "acq_date": "2026-05-18",
        "acq_time": "1949",
        "satellite": "N20"
      },
      {
        "latitude": 33.41979,
        "longitude": -110.86045,
        "brightness": 335.58,
        "frp": 4.26,
        "confidence": "nominal",
        "acq_date": "2026-05-18",
        "acq_time": "1949",
        "satellite": "N20"
      }
    ]
  }
}