{
  "last_updated": "2026-05-06T08:08:53.971289+00:00",
  "coverage": {
    "region": "Colorado River Basin",
    "bbox": {
      "min_lat": 31,
      "max_lat": 42,
      "min_lon": -115,
      "max_lon": -107
    },
    "description": "Includes Colorado, Utah, Nevada, Arizona, California, New Mexico, Wyoming"
  },
  "endpoints": {
    "data": "/api/data.json",
    "water": "/api/water.json",
    "snowpack": "/api/snowpack.json",
    "airquality": "/api/airquality.json",
    "wildfire": "/api/wildfire.json",
    "meta": "/api/meta.json"
  },
  "water": {
    "source": "USGS National Water Information System",
    "source_url": "https://waterservices.usgs.gov/",
    "description": "Real-time streamflow for Colorado River Basin gauges",
    "unit": "ft3/s (cubic feet per second)",
    "last_updated": "2026-05-06T08:08:53.971289+00:00",
    "gauges": [
      {
        "site_id": "09095500",
        "site_name": "Colorado River near Cameo, CO",
        "latitude": 39.2391463,
        "longitude": -108.2661946,
        "parameter": "Streamflow",
        "latest": {
          "value": 1880.0,
          "unit": "ft3/s",
          "datetime": "2026-05-06T01:45:00.000-06:00",
          "qualifiers": [
            "P"
          ]
        }
      },
      {
        "site_id": "09380000",
        "site_name": "Colorado River at Lees Ferry, AZ",
        "latitude": 36.86433333,
        "longitude": -111.58787222,
        "parameter": "Streamflow",
        "latest": {
          "value": 8630.0,
          "unit": "ft3/s",
          "datetime": "2026-05-06T00:00:00.000-07:00",
          "qualifiers": [
            "P"
          ]
        }
      },
      {
        "site_id": "09404200",
        "site_name": "Colorado River near Grand Canyon, AZ",
        "latitude": 35.7735994,
        "longitude": -113.363544,
        "parameter": "Streamflow",
        "latest": {
          "value": 7870.0,
          "unit": "ft3/s",
          "datetime": "2026-05-06T00:30:00.000-07:00",
          "qualifiers": [
            "P"
          ]
        }
      }
    ]
  },
  "snowpack": {
    "source": "USDA Natural Resources Conservation Service SNOTEL",
    "source_url": "https://www.nrcs.usda.gov/wps/portal/wcc/home/",
    "description": "Snow Water Equivalent (SWE) for Upper Colorado River Basin SNOTEL stations",
    "last_updated": "2026-05-06T08:08:53.971289+00:00",
    "stations": [
      {
        "station_id": "356",
        "station_name": "Berthoud Summit",
        "network": "SNOTEL",
        "state": "CO",
        "basin": "Upper Colorado River Basin",
        "date": "",
        "snow_water_equivalent_inches": null,
        "unit": "inches"
      }
    ]
  },
  "airquality": {
    "source": "Static monitoring station index (OpenAQ key required for live data)",
    "source_url": "https://openaq.org/",
    "description": "Air quality monitoring locations within 300km of Colorado River Basin center (36.5\u00b0N, 112.5\u00b0W)",
    "note": "OPENAQ_API_KEY not set; add as GitHub Actions secret for live data",
    "coverage": {
      "center_lat": 36.5,
      "center_lon": -112.5,
      "radius_km": 300
    },
    "last_updated": "2026-05-06T08:08:53.971289+00:00",
    "locations": [
      {
        "name": "Grand Canyon NPS",
        "latitude": 36.0544,
        "longitude": -112.1401,
        "locality": "Grand Canyon",
        "country": "US",
        "sensors": [
          {
            "parameter": "pm25",
            "unit": "\u00b5g/m\u00b3",
            "display_name": "PM2.5"
          },
          {
            "parameter": "ozone",
            "unit": "ppb",
            "display_name": "Ozone"
          }
        ]
      },
      {
        "name": "Flagstaff",
        "latitude": 35.1983,
        "longitude": -111.6513,
        "locality": "Flagstaff",
        "country": "US",
        "sensors": [
          {
            "parameter": "pm25",
            "unit": "\u00b5g/m\u00b3",
            "display_name": "PM2.5"
          },
          {
            "parameter": "pm10",
            "unit": "\u00b5g/m\u00b3",
            "display_name": "PM10"
          }
        ]
      },
      {
        "name": "Moab",
        "latitude": 38.5733,
        "longitude": -109.5498,
        "locality": "Moab",
        "country": "US",
        "sensors": [
          {
            "parameter": "pm25",
            "unit": "\u00b5g/m\u00b3",
            "display_name": "PM2.5"
          }
        ]
      },
      {
        "name": "Las Vegas - East Charleston",
        "latitude": 36.1699,
        "longitude": -115.1398,
        "locality": "Las Vegas",
        "country": "US",
        "sensors": [
          {
            "parameter": "pm25",
            "unit": "\u00b5g/m\u00b3",
            "display_name": "PM2.5"
          },
          {
            "parameter": "no2",
            "unit": "ppb",
            "display_name": "NO2"
          }
        ]
      },
      {
        "name": "St. George",
        "latitude": 37.0965,
        "longitude": -113.5684,
        "locality": "St. George",
        "country": "US",
        "sensors": [
          {
            "parameter": "pm25",
            "unit": "\u00b5g/m\u00b3",
            "display_name": "PM2.5"
          }
        ]
      },
      {
        "name": "Page",
        "latitude": 36.9147,
        "longitude": -111.4424,
        "locality": "Page",
        "country": "US",
        "sensors": [
          {
            "parameter": "pm25",
            "unit": "\u00b5g/m\u00b3",
            "display_name": "PM2.5"
          },
          {
            "parameter": "ozone",
            "unit": "ppb",
            "display_name": "Ozone"
          }
        ]
      }
    ]
  },
  "wildfire": {
    "source": "NASA FIRMS VIIRS NOAA-20 C2 (24h)",
    "source_url": "https://firms.modaps.eosdis.nasa.gov/",
    "description": "Active wildfires in the Colorado River Basin (31-42\u00b0N, 107-115\u00b0W), last 24 hours",
    "coverage_bbox": {
      "min_lat": 31,
      "max_lat": 42,
      "min_lon": -115,
      "max_lon": -107
    },
    "last_updated": "2026-05-06T08:08:53.971289+00:00",
    "fire_count": 10,
    "fires": [
      {
        "latitude": 38.9376,
        "longitude": -112.81814,
        "brightness": 301.11,
        "frp": 0.93,
        "confidence": "nominal",
        "acq_date": "2026-05-05",
        "acq_time": "0913",
        "satellite": "N20"
      },
      {
        "latitude": 36.38465,
        "longitude": -114.87642,
        "brightness": 302.28,
        "frp": 0.74,
        "confidence": "nominal",
        "acq_date": "2026-05-05",
        "acq_time": "0913",
        "satellite": "N20"
      },
      {
        "latitude": 36.38354,
        "longitude": -114.8768,
        "brightness": 299.26,
        "frp": 0.71,
        "confidence": "nominal",
        "acq_date": "2026-05-05",
        "acq_time": "0913",
        "satellite": "N20"
      },
      {
        "latitude": 36.35706,
        "longitude": -114.90993,
        "brightness": 305.78,
        "frp": 1.24,
        "confidence": "nominal",
        "acq_date": "2026-05-05",
        "acq_time": "0913",
        "satellite": "N20"
      },
      {
        "latitude": 35.51786,
        "longitude": -113.31611,
        "brightness": 295.66,
        "frp": 1.03,
        "confidence": "nominal",
        "acq_date": "2026-05-05",
        "acq_time": "0913",
        "satellite": "N20"
      },
      {
        "latitude": 35.51723,
        "longitude": -113.31143,
        "brightness": 305.53,
        "frp": 1.03,
        "confidence": "nominal",
        "acq_date": "2026-05-05",
        "acq_time": "0913",
        "satellite": "N20"
      },
      {
        "latitude": 33.33908,
        "longitude": -112.5742,
        "brightness": 334.86,
        "frp": 2.7,
        "confidence": "nominal",
        "acq_date": "2026-05-05",
        "acq_time": "2034",
        "satellite": "N20"
      },
      {
        "latitude": 33.34235,
        "longitude": -112.57491,
        "brightness": 367.0,
        "frp": 90.58,
        "confidence": "high",
        "acq_date": "2026-05-05",
        "acq_time": "2034",
        "satellite": "N20"
      },
      {
        "latitude": 33.345,
        "longitude": -112.5797,
        "brightness": 352.46,
        "frp": 90.58,
        "confidence": "nominal",
        "acq_date": "2026-05-05",
        "acq_time": "2034",
        "satellite": "N20"
      },
      {
        "latitude": 38.5322,
        "longitude": -109.10283,
        "brightness": 338.66,
        "frp": 23.68,
        "confidence": "nominal",
        "acq_date": "2026-05-05",
        "acq_time": "2036",
        "satellite": "N20"
      }
    ]
  }
}