{
  "last_updated": "2026-05-02T11:37:32.123143+00:00",
  "coverage": {
    "region": "Colorado River Basin",
    "bbox": {
      "min_lat": 31,
      "max_lat": 42,
      "min_lon": -115,
      "max_lon": -107
    },
    "description": "Includes Colorado, Utah, Nevada, Arizona, California, New Mexico, Wyoming"
  },
  "endpoints": {
    "data": "/api/data.json",
    "water": "/api/water.json",
    "snowpack": "/api/snowpack.json",
    "airquality": "/api/airquality.json",
    "wildfire": "/api/wildfire.json",
    "meta": "/api/meta.json"
  },
  "water": {
    "source": "USGS National Water Information System",
    "source_url": "https://waterservices.usgs.gov/",
    "description": "Real-time streamflow for Colorado River Basin gauges",
    "unit": "ft3/s (cubic feet per second)",
    "last_updated": "2026-05-02T11:37:32.123143+00:00",
    "gauges": [
      {
        "site_id": "09095500",
        "site_name": "Colorado River near Cameo, CO",
        "latitude": 39.2391463,
        "longitude": -108.2661946,
        "parameter": "Streamflow",
        "latest": {
          "value": 1900.0,
          "unit": "ft3/s",
          "datetime": "2026-05-02T05:15:00.000-06:00",
          "qualifiers": [
            "P"
          ]
        }
      },
      {
        "site_id": "09380000",
        "site_name": "Colorado River at Lees Ferry, AZ",
        "latitude": 36.86433333,
        "longitude": -111.58787222,
        "parameter": "Streamflow",
        "latest": {
          "value": 6560.0,
          "unit": "ft3/s",
          "datetime": "2026-05-02T04:00:00.000-07:00",
          "qualifiers": [
            "P"
          ]
        }
      },
      {
        "site_id": "09404200",
        "site_name": "Colorado River near Grand Canyon, AZ",
        "latitude": 35.7735994,
        "longitude": -113.363544,
        "parameter": "Streamflow",
        "latest": {
          "value": 7380.0,
          "unit": "ft3/s",
          "datetime": "2026-05-02T03:30:00.000-07:00",
          "qualifiers": [
            "P"
          ]
        }
      }
    ]
  },
  "snowpack": {
    "source": "USDA Natural Resources Conservation Service SNOTEL",
    "source_url": "https://www.nrcs.usda.gov/wps/portal/wcc/home/",
    "description": "Snow Water Equivalent (SWE) for Upper Colorado River Basin SNOTEL stations",
    "last_updated": "2026-05-02T11:37:32.123143+00:00",
    "stations": [
      {
        "station_id": "356",
        "station_name": "Berthoud Summit",
        "network": "SNOTEL",
        "state": "CO",
        "basin": "Upper Colorado River Basin",
        "date": "",
        "snow_water_equivalent_inches": null,
        "unit": "inches"
      }
    ]
  },
  "airquality": {
    "source": "Static monitoring station index (OpenAQ key required for live data)",
    "source_url": "https://openaq.org/",
    "description": "Air quality monitoring locations within 300km of Colorado River Basin center (36.5\u00b0N, 112.5\u00b0W)",
    "note": "OPENAQ_API_KEY not set; add as GitHub Actions secret for live data",
    "coverage": {
      "center_lat": 36.5,
      "center_lon": -112.5,
      "radius_km": 300
    },
    "last_updated": "2026-05-02T11:37:32.123143+00:00",
    "locations": [
      {
        "name": "Grand Canyon NPS",
        "latitude": 36.0544,
        "longitude": -112.1401,
        "locality": "Grand Canyon",
        "country": "US",
        "sensors": [
          {
            "parameter": "pm25",
            "unit": "\u00b5g/m\u00b3",
            "display_name": "PM2.5"
          },
          {
            "parameter": "ozone",
            "unit": "ppb",
            "display_name": "Ozone"
          }
        ]
      },
      {
        "name": "Flagstaff",
        "latitude": 35.1983,
        "longitude": -111.6513,
        "locality": "Flagstaff",
        "country": "US",
        "sensors": [
          {
            "parameter": "pm25",
            "unit": "\u00b5g/m\u00b3",
            "display_name": "PM2.5"
          },
          {
            "parameter": "pm10",
            "unit": "\u00b5g/m\u00b3",
            "display_name": "PM10"
          }
        ]
      },
      {
        "name": "Moab",
        "latitude": 38.5733,
        "longitude": -109.5498,
        "locality": "Moab",
        "country": "US",
        "sensors": [
          {
            "parameter": "pm25",
            "unit": "\u00b5g/m\u00b3",
            "display_name": "PM2.5"
          }
        ]
      },
      {
        "name": "Las Vegas - East Charleston",
        "latitude": 36.1699,
        "longitude": -115.1398,
        "locality": "Las Vegas",
        "country": "US",
        "sensors": [
          {
            "parameter": "pm25",
            "unit": "\u00b5g/m\u00b3",
            "display_name": "PM2.5"
          },
          {
            "parameter": "no2",
            "unit": "ppb",
            "display_name": "NO2"
          }
        ]
      },
      {
        "name": "St. George",
        "latitude": 37.0965,
        "longitude": -113.5684,
        "locality": "St. George",
        "country": "US",
        "sensors": [
          {
            "parameter": "pm25",
            "unit": "\u00b5g/m\u00b3",
            "display_name": "PM2.5"
          }
        ]
      },
      {
        "name": "Page",
        "latitude": 36.9147,
        "longitude": -111.4424,
        "locality": "Page",
        "country": "US",
        "sensors": [
          {
            "parameter": "pm25",
            "unit": "\u00b5g/m\u00b3",
            "display_name": "PM2.5"
          },
          {
            "parameter": "ozone",
            "unit": "ppb",
            "display_name": "Ozone"
          }
        ]
      }
    ]
  },
  "wildfire": {
    "source": "NASA FIRMS VIIRS NOAA-20 C2 (24h)",
    "source_url": "https://firms.modaps.eosdis.nasa.gov/",
    "description": "Active wildfires in the Colorado River Basin (31-42\u00b0N, 107-115\u00b0W), last 24 hours",
    "coverage_bbox": {
      "min_lat": 31,
      "max_lat": 42,
      "min_lon": -115,
      "max_lon": -107
    },
    "last_updated": "2026-05-02T11:37:32.123143+00:00",
    "fire_count": 9,
    "fires": [
      {
        "latitude": 41.88273,
        "longitude": -112.19792,
        "brightness": 296.91,
        "frp": 1.17,
        "confidence": "nominal",
        "acq_date": "2026-05-01",
        "acq_time": "0848",
        "satellite": "N20"
      },
      {
        "latitude": 38.94035,
        "longitude": -112.81967,
        "brightness": 298.2,
        "frp": 2.21,
        "confidence": "nominal",
        "acq_date": "2026-05-01",
        "acq_time": "0848",
        "satellite": "N20"
      },
      {
        "latitude": 35.51559,
        "longitude": -113.31265,
        "brightness": 302.74,
        "frp": 1.79,
        "confidence": "nominal",
        "acq_date": "2026-05-01",
        "acq_time": "0850",
        "satellite": "N20"
      },
      {
        "latitude": 36.35609,
        "longitude": -114.91473,
        "brightness": 299.03,
        "frp": 1.02,
        "confidence": "nominal",
        "acq_date": "2026-05-01",
        "acq_time": "1030",
        "satellite": "N20"
      },
      {
        "latitude": 38.9404,
        "longitude": -112.8184,
        "brightness": 306.85,
        "frp": 1.88,
        "confidence": "nominal",
        "acq_date": "2026-05-01",
        "acq_time": "1028",
        "satellite": "N20"
      },
      {
        "latitude": 36.35621,
        "longitude": -114.91173,
        "brightness": 298.23,
        "frp": 1.21,
        "confidence": "nominal",
        "acq_date": "2026-05-01",
        "acq_time": "1030",
        "satellite": "N20"
      },
      {
        "latitude": 32.8924,
        "longitude": -113.5321,
        "brightness": 343.85,
        "frp": 7.45,
        "confidence": "low",
        "acq_date": "2026-05-01",
        "acq_time": "2010",
        "satellite": "N20"
      },
      {
        "latitude": 40.75901,
        "longitude": -112.03599,
        "brightness": 334.2,
        "frp": 3.77,
        "confidence": "low",
        "acq_date": "2026-05-01",
        "acq_time": "2010",
        "satellite": "N20"
      },
      {
        "latitude": 41.63581,
        "longitude": -112.65516,
        "brightness": 335.64,
        "frp": 2.29,
        "confidence": "low",
        "acq_date": "2026-05-01",
        "acq_time": "2012",
        "satellite": "N20"
      }
    ]
  }
}