{
  "last_updated": "2026-03-17T09:45:47.530583+00:00",
  "coverage": {
    "region": "Colorado River Basin",
    "bbox": {
      "min_lat": 31,
      "max_lat": 42,
      "min_lon": -115,
      "max_lon": -107
    },
    "description": "Includes Colorado, Utah, Nevada, Arizona, California, New Mexico, Wyoming"
  },
  "endpoints": {
    "data": "/api/data.json",
    "water": "/api/water.json",
    "snowpack": "/api/snowpack.json",
    "airquality": "/api/airquality.json",
    "wildfire": "/api/wildfire.json",
    "meta": "/api/meta.json"
  },
  "water": {
    "source": "USGS National Water Information System",
    "source_url": "https://waterservices.usgs.gov/",
    "description": "Real-time streamflow for Colorado River Basin gauges",
    "unit": "ft3/s (cubic feet per second)",
    "last_updated": "2026-03-17T09:45:47.530583+00:00",
    "gauges": [
      {
        "site_id": "09095500",
        "site_name": "Colorado River near Cameo, CO",
        "latitude": 39.2391463,
        "longitude": -108.2661946,
        "parameter": "Streamflow",
        "latest": {
          "value": 1250.0,
          "unit": "ft3/s",
          "datetime": "2026-03-17T03:30:00.000-06:00",
          "qualifiers": [
            "P"
          ]
        }
      },
      {
        "site_id": "09380000",
        "site_name": "Colorado River at Lees Ferry, AZ",
        "latitude": 36.86433333,
        "longitude": -111.58787222,
        "parameter": "Streamflow",
        "latest": {
          "value": 7900.0,
          "unit": "ft3/s",
          "datetime": "2026-03-17T02:00:00.000-07:00",
          "qualifiers": [
            "P"
          ]
        }
      },
      {
        "site_id": "09404200",
        "site_name": "Colorado River near Grand Canyon, AZ",
        "latitude": 35.7735994,
        "longitude": -113.363544,
        "parameter": "Streamflow",
        "latest": {
          "value": 8550.0,
          "unit": "ft3/s",
          "datetime": "2026-03-17T02:30:00.000-07:00",
          "qualifiers": [
            "P"
          ]
        }
      }
    ]
  },
  "snowpack": {
    "source": "USDA Natural Resources Conservation Service SNOTEL",
    "source_url": "https://www.nrcs.usda.gov/wps/portal/wcc/home/",
    "description": "Snow Water Equivalent (SWE) for Upper Colorado River Basin SNOTEL stations",
    "last_updated": "2026-03-17T09:45:47.530583+00:00",
    "stations": [
      {
        "station_id": "356",
        "station_name": "Berthoud Summit",
        "network": "SNOTEL",
        "state": "CO",
        "basin": "Upper Colorado River Basin",
        "date": "",
        "snow_water_equivalent_inches": null,
        "unit": "inches"
      }
    ]
  },
  "airquality": {
    "source": "Static monitoring station index (OpenAQ key required for live data)",
    "source_url": "https://openaq.org/",
    "description": "Air quality monitoring locations within 300km of Colorado River Basin center (36.5\u00b0N, 112.5\u00b0W)",
    "note": "OPENAQ_API_KEY not set; add as GitHub Actions secret for live data",
    "coverage": {
      "center_lat": 36.5,
      "center_lon": -112.5,
      "radius_km": 300
    },
    "last_updated": "2026-03-17T09:45:47.530583+00:00",
    "locations": [
      {
        "name": "Grand Canyon NPS",
        "latitude": 36.0544,
        "longitude": -112.1401,
        "locality": "Grand Canyon",
        "country": "US",
        "sensors": [
          {
            "parameter": "pm25",
            "unit": "\u00b5g/m\u00b3",
            "display_name": "PM2.5"
          },
          {
            "parameter": "ozone",
            "unit": "ppb",
            "display_name": "Ozone"
          }
        ]
      },
      {
        "name": "Flagstaff",
        "latitude": 35.1983,
        "longitude": -111.6513,
        "locality": "Flagstaff",
        "country": "US",
        "sensors": [
          {
            "parameter": "pm25",
            "unit": "\u00b5g/m\u00b3",
            "display_name": "PM2.5"
          },
          {
            "parameter": "pm10",
            "unit": "\u00b5g/m\u00b3",
            "display_name": "PM10"
          }
        ]
      },
      {
        "name": "Moab",
        "latitude": 38.5733,
        "longitude": -109.5498,
        "locality": "Moab",
        "country": "US",
        "sensors": [
          {
            "parameter": "pm25",
            "unit": "\u00b5g/m\u00b3",
            "display_name": "PM2.5"
          }
        ]
      },
      {
        "name": "Las Vegas - East Charleston",
        "latitude": 36.1699,
        "longitude": -115.1398,
        "locality": "Las Vegas",
        "country": "US",
        "sensors": [
          {
            "parameter": "pm25",
            "unit": "\u00b5g/m\u00b3",
            "display_name": "PM2.5"
          },
          {
            "parameter": "no2",
            "unit": "ppb",
            "display_name": "NO2"
          }
        ]
      },
      {
        "name": "St. George",
        "latitude": 37.0965,
        "longitude": -113.5684,
        "locality": "St. George",
        "country": "US",
        "sensors": [
          {
            "parameter": "pm25",
            "unit": "\u00b5g/m\u00b3",
            "display_name": "PM2.5"
          }
        ]
      },
      {
        "name": "Page",
        "latitude": 36.9147,
        "longitude": -111.4424,
        "locality": "Page",
        "country": "US",
        "sensors": [
          {
            "parameter": "pm25",
            "unit": "\u00b5g/m\u00b3",
            "display_name": "PM2.5"
          },
          {
            "parameter": "ozone",
            "unit": "ppb",
            "display_name": "Ozone"
          }
        ]
      }
    ]
  },
  "wildfire": {
    "source": "NASA FIRMS VIIRS NOAA-20 C2 (24h)",
    "source_url": "https://firms.modaps.eosdis.nasa.gov/",
    "description": "Active wildfires in the Colorado River Basin (31-42\u00b0N, 107-115\u00b0W), last 24 hours",
    "coverage_bbox": {
      "min_lat": 31,
      "max_lat": 42,
      "min_lon": -115,
      "max_lon": -107
    },
    "last_updated": "2026-03-17T09:45:47.530583+00:00",
    "fire_count": 13,
    "fires": [
      {
        "latitude": 36.359,
        "longitude": -114.90901,
        "brightness": 296.91,
        "frp": 0.42,
        "confidence": "nominal",
        "acq_date": "2026-03-16",
        "acq_time": "0952",
        "satellite": "N20"
      },
      {
        "latitude": 33.42027,
        "longitude": -110.86298,
        "brightness": 311.32,
        "frp": 1.04,
        "confidence": "nominal",
        "acq_date": "2026-03-16",
        "acq_time": "0952",
        "satellite": "N20"
      },
      {
        "latitude": 33.41882,
        "longitude": -110.86073,
        "brightness": 317.26,
        "frp": 1.92,
        "confidence": "nominal",
        "acq_date": "2026-03-16",
        "acq_time": "0952",
        "satellite": "N20"
      },
      {
        "latitude": 38.20866,
        "longitude": -112.96651,
        "brightness": 328.96,
        "frp": 3.37,
        "confidence": "nominal",
        "acq_date": "2026-03-16",
        "acq_time": "1932",
        "satellite": "N20"
      },
      {
        "latitude": 40.13245,
        "longitude": -110.04234,
        "brightness": 332.76,
        "frp": 3.08,
        "confidence": "nominal",
        "acq_date": "2026-03-16",
        "acq_time": "1934",
        "satellite": "N20"
      },
      {
        "latitude": 32.98903,
        "longitude": -112.94585,
        "brightness": 338.14,
        "frp": 8.87,
        "confidence": "nominal",
        "acq_date": "2026-03-16",
        "acq_time": "2112",
        "satellite": "N20"
      },
      {
        "latitude": 32.98851,
        "longitude": -112.95216,
        "brightness": 343.05,
        "frp": 8.87,
        "confidence": "nominal",
        "acq_date": "2026-03-16",
        "acq_time": "2112",
        "satellite": "N20"
      },
      {
        "latitude": 33.41684,
        "longitude": -110.86049,
        "brightness": 337.3,
        "frp": 5.2,
        "confidence": "low",
        "acq_date": "2026-03-16",
        "acq_time": "2112",
        "satellite": "N20"
      },
      {
        "latitude": 38.20367,
        "longitude": -112.97225,
        "brightness": 334.98,
        "frp": 1.1,
        "confidence": "nominal",
        "acq_date": "2026-03-16",
        "acq_time": "2114",
        "satellite": "N20"
      },
      {
        "latitude": 38.20639,
        "longitude": -112.97382,
        "brightness": 333.96,
        "frp": 2.64,
        "confidence": "nominal",
        "acq_date": "2026-03-16",
        "acq_time": "2114",
        "satellite": "N20"
      },
      {
        "latitude": 38.63077,
        "longitude": -108.07592,
        "brightness": 345.29,
        "frp": 19.39,
        "confidence": "nominal",
        "acq_date": "2026-03-16",
        "acq_time": "2114",
        "satellite": "N20"
      },
      {
        "latitude": 38.63059,
        "longitude": -108.08319,
        "brightness": 354.28,
        "frp": 23.14,
        "confidence": "nominal",
        "acq_date": "2026-03-16",
        "acq_time": "2114",
        "satellite": "N20"
      },
      {
        "latitude": 38.62844,
        "longitude": -108.08241,
        "brightness": 354.36,
        "frp": 31.28,
        "confidence": "nominal",
        "acq_date": "2026-03-16",
        "acq_time": "2114",
        "satellite": "N20"
      }
    ]
  }
}