{
  "last_updated": "2026-05-27T17:54:32.693244+00:00",
  "coverage": {
    "region": "Colorado River Basin",
    "bbox": {
      "min_lat": 31,
      "max_lat": 42,
      "min_lon": -115,
      "max_lon": -107
    },
    "description": "Includes Colorado, Utah, Nevada, Arizona, California, New Mexico, Wyoming"
  },
  "endpoints": {
    "data": "/api/data.json",
    "water": "/api/water.json",
    "snowpack": "/api/snowpack.json",
    "airquality": "/api/airquality.json",
    "wildfire": "/api/wildfire.json",
    "meta": "/api/meta.json"
  },
  "water": {
    "source": "USGS National Water Information System",
    "source_url": "https://waterservices.usgs.gov/",
    "description": "Real-time streamflow for Colorado River Basin gauges",
    "unit": "ft3/s (cubic feet per second)",
    "last_updated": "2026-05-27T17:54:32.693244+00:00",
    "gauges": [
      {
        "site_id": "09095500",
        "site_name": "Colorado River near Cameo, CO",
        "latitude": 39.2391463,
        "longitude": -108.2661946,
        "parameter": "Streamflow",
        "latest": {
          "value": 2920.0,
          "unit": "ft3/s",
          "datetime": "2026-05-27T11:30:00.000-06:00",
          "qualifiers": [
            "P"
          ]
        }
      },
      {
        "site_id": "09380000",
        "site_name": "Colorado River at Lees Ferry, AZ",
        "latitude": 36.86433333,
        "longitude": -111.58787222,
        "parameter": "Streamflow",
        "latest": {
          "value": 7500.0,
          "unit": "ft3/s",
          "datetime": "2026-05-27T10:00:00.000-07:00",
          "qualifiers": [
            "P"
          ]
        }
      },
      {
        "site_id": "09404200",
        "site_name": "Colorado River near Grand Canyon, AZ",
        "latitude": 35.7735994,
        "longitude": -113.363544,
        "parameter": "Streamflow",
        "latest": {
          "value": 6770.0,
          "unit": "ft3/s",
          "datetime": "2026-05-27T10:30:00.000-07:00",
          "qualifiers": [
            "P"
          ]
        }
      }
    ]
  },
  "snowpack": {
    "source": "USDA Natural Resources Conservation Service SNOTEL",
    "source_url": "https://www.nrcs.usda.gov/wps/portal/wcc/home/",
    "description": "Snow Water Equivalent (SWE) for Upper Colorado River Basin SNOTEL stations",
    "last_updated": "2026-05-27T17:54:32.693244+00:00",
    "stations": [
      {
        "station_id": "356",
        "station_name": "Berthoud Summit",
        "network": "SNOTEL",
        "state": "CO",
        "basin": "Upper Colorado River Basin",
        "date": "",
        "snow_water_equivalent_inches": null,
        "unit": "inches"
      }
    ]
  },
  "airquality": {
    "source": "Static monitoring station index (OpenAQ key required for live data)",
    "source_url": "https://openaq.org/",
    "description": "Air quality monitoring locations within 300km of Colorado River Basin center (36.5\u00b0N, 112.5\u00b0W)",
    "note": "OPENAQ_API_KEY not set; add as GitHub Actions secret for live data",
    "coverage": {
      "center_lat": 36.5,
      "center_lon": -112.5,
      "radius_km": 300
    },
    "last_updated": "2026-05-27T17:54:32.693244+00:00",
    "locations": [
      {
        "name": "Grand Canyon NPS",
        "latitude": 36.0544,
        "longitude": -112.1401,
        "locality": "Grand Canyon",
        "country": "US",
        "sensors": [
          {
            "parameter": "pm25",
            "unit": "\u00b5g/m\u00b3",
            "display_name": "PM2.5"
          },
          {
            "parameter": "ozone",
            "unit": "ppb",
            "display_name": "Ozone"
          }
        ]
      },
      {
        "name": "Flagstaff",
        "latitude": 35.1983,
        "longitude": -111.6513,
        "locality": "Flagstaff",
        "country": "US",
        "sensors": [
          {
            "parameter": "pm25",
            "unit": "\u00b5g/m\u00b3",
            "display_name": "PM2.5"
          },
          {
            "parameter": "pm10",
            "unit": "\u00b5g/m\u00b3",
            "display_name": "PM10"
          }
        ]
      },
      {
        "name": "Moab",
        "latitude": 38.5733,
        "longitude": -109.5498,
        "locality": "Moab",
        "country": "US",
        "sensors": [
          {
            "parameter": "pm25",
            "unit": "\u00b5g/m\u00b3",
            "display_name": "PM2.5"
          }
        ]
      },
      {
        "name": "Las Vegas - East Charleston",
        "latitude": 36.1699,
        "longitude": -115.1398,
        "locality": "Las Vegas",
        "country": "US",
        "sensors": [
          {
            "parameter": "pm25",
            "unit": "\u00b5g/m\u00b3",
            "display_name": "PM2.5"
          },
          {
            "parameter": "no2",
            "unit": "ppb",
            "display_name": "NO2"
          }
        ]
      },
      {
        "name": "St. George",
        "latitude": 37.0965,
        "longitude": -113.5684,
        "locality": "St. George",
        "country": "US",
        "sensors": [
          {
            "parameter": "pm25",
            "unit": "\u00b5g/m\u00b3",
            "display_name": "PM2.5"
          }
        ]
      },
      {
        "name": "Page",
        "latitude": 36.9147,
        "longitude": -111.4424,
        "locality": "Page",
        "country": "US",
        "sensors": [
          {
            "parameter": "pm25",
            "unit": "\u00b5g/m\u00b3",
            "display_name": "PM2.5"
          },
          {
            "parameter": "ozone",
            "unit": "ppb",
            "display_name": "Ozone"
          }
        ]
      }
    ]
  },
  "wildfire": {
    "source": "NASA FIRMS VIIRS NOAA-20 C2 (24h)",
    "source_url": "https://firms.modaps.eosdis.nasa.gov/",
    "description": "Active wildfires in the Colorado River Basin (31-42\u00b0N, 107-115\u00b0W), last 24 hours",
    "coverage_bbox": {
      "min_lat": 31,
      "max_lat": 42,
      "min_lon": -115,
      "max_lon": -107
    },
    "last_updated": "2026-05-27T17:54:32.693244+00:00",
    "fire_count": 16,
    "fires": [
      {
        "latitude": 40.82165,
        "longitude": -114.25633,
        "brightness": 312.02,
        "frp": 1.79,
        "confidence": "nominal",
        "acq_date": "2026-05-26",
        "acq_time": "0920",
        "satellite": "N20"
      },
      {
        "latitude": 36.35684,
        "longitude": -114.91292,
        "brightness": 313.76,
        "frp": 1.29,
        "confidence": "nominal",
        "acq_date": "2026-05-26",
        "acq_time": "0922",
        "satellite": "N20"
      },
      {
        "latitude": 35.51863,
        "longitude": -113.31485,
        "brightness": 307.17,
        "frp": 1.03,
        "confidence": "nominal",
        "acq_date": "2026-05-26",
        "acq_time": "0922",
        "satellite": "N20"
      },
      {
        "latitude": 33.41978,
        "longitude": -110.86091,
        "brightness": 311.11,
        "frp": 1.49,
        "confidence": "nominal",
        "acq_date": "2026-05-26",
        "acq_time": "0922",
        "satellite": "N20"
      },
      {
        "latitude": 32.18607,
        "longitude": -114.98517,
        "brightness": 318.83,
        "frp": 1.36,
        "confidence": "nominal",
        "acq_date": "2026-05-26",
        "acq_time": "0922",
        "satellite": "N20"
      },
      {
        "latitude": 39.36399,
        "longitude": -112.3359,
        "brightness": 340.18,
        "frp": 6.14,
        "confidence": "low",
        "acq_date": "2026-05-26",
        "acq_time": "2042",
        "satellite": "N20"
      },
      {
        "latitude": 41.68407,
        "longitude": -112.43324,
        "brightness": 337.37,
        "frp": 3.86,
        "confidence": "low",
        "acq_date": "2026-05-26",
        "acq_time": "2044",
        "satellite": "N20"
      },
      {
        "latitude": 40.72478,
        "longitude": -112.19911,
        "brightness": 300.17,
        "frp": 0.59,
        "confidence": "nominal",
        "acq_date": "2026-05-27",
        "acq_time": "0902",
        "satellite": "N20"
      },
      {
        "latitude": 38.93707,
        "longitude": -112.81507,
        "brightness": 304.41,
        "frp": 1.31,
        "confidence": "nominal",
        "acq_date": "2026-05-27",
        "acq_time": "0902",
        "satellite": "N20"
      },
      {
        "latitude": 36.35686,
        "longitude": -114.91277,
        "brightness": 311.34,
        "frp": 1.29,
        "confidence": "nominal",
        "acq_date": "2026-05-27",
        "acq_time": "0902",
        "satellite": "N20"
      },
      {
        "latitude": 35.51711,
        "longitude": -113.31223,
        "brightness": 300.57,
        "frp": 0.51,
        "confidence": "nominal",
        "acq_date": "2026-05-27",
        "acq_time": "0902",
        "satellite": "N20"
      },
      {
        "latitude": 35.14607,
        "longitude": -114.09067,
        "brightness": 302.12,
        "frp": 0.61,
        "confidence": "nominal",
        "acq_date": "2026-05-27",
        "acq_time": "0902",
        "satellite": "N20"
      },
      {
        "latitude": 33.84099,
        "longitude": -110.14475,
        "brightness": 330.29,
        "frp": 5.6,
        "confidence": "nominal",
        "acq_date": "2026-05-27",
        "acq_time": "0905",
        "satellite": "N20"
      },
      {
        "latitude": 33.42065,
        "longitude": -110.85998,
        "brightness": 306.53,
        "frp": 5.45,
        "confidence": "nominal",
        "acq_date": "2026-05-27",
        "acq_time": "0905",
        "satellite": "N20"
      },
      {
        "latitude": 33.41718,
        "longitude": -110.86068,
        "brightness": 326.53,
        "frp": 5.45,
        "confidence": "nominal",
        "acq_date": "2026-05-27",
        "acq_time": "0905",
        "satellite": "N20"
      },
      {
        "latitude": 33.41371,
        "longitude": -110.86137,
        "brightness": 299.99,
        "frp": 0.73,
        "confidence": "nominal",
        "acq_date": "2026-05-27",
        "acq_time": "0905",
        "satellite": "N20"
      }
    ]
  }
}