{
  "last_updated": "2026-05-08T05:14:35.954697+00:00",
  "coverage": {
    "region": "Colorado River Basin",
    "bbox": {
      "min_lat": 31,
      "max_lat": 42,
      "min_lon": -115,
      "max_lon": -107
    },
    "description": "Includes Colorado, Utah, Nevada, Arizona, California, New Mexico, Wyoming"
  },
  "endpoints": {
    "data": "/api/data.json",
    "water": "/api/water.json",
    "snowpack": "/api/snowpack.json",
    "airquality": "/api/airquality.json",
    "wildfire": "/api/wildfire.json",
    "meta": "/api/meta.json"
  },
  "water": {
    "source": "USGS National Water Information System",
    "source_url": "https://waterservices.usgs.gov/",
    "description": "Real-time streamflow for Colorado River Basin gauges",
    "unit": "ft3/s (cubic feet per second)",
    "last_updated": "2026-05-08T05:14:35.954697+00:00",
    "gauges": [
      {
        "site_id": "09095500",
        "site_name": "Colorado River near Cameo, CO",
        "latitude": 39.2391463,
        "longitude": -108.2661946,
        "parameter": "Streamflow",
        "latest": {
          "value": 2250.0,
          "unit": "ft3/s",
          "datetime": "2026-05-07T23:00:00.000-06:00",
          "qualifiers": [
            "P"
          ]
        }
      },
      {
        "site_id": "09380000",
        "site_name": "Colorado River at Lees Ferry, AZ",
        "latitude": 36.86433333,
        "longitude": -111.58787222,
        "parameter": "Streamflow",
        "latest": {
          "value": 8740.0,
          "unit": "ft3/s",
          "datetime": "2026-05-07T22:00:00.000-07:00",
          "qualifiers": [
            "P"
          ]
        }
      },
      {
        "site_id": "09404200",
        "site_name": "Colorado River near Grand Canyon, AZ",
        "latitude": 35.7735994,
        "longitude": -113.363544,
        "parameter": "Streamflow",
        "latest": {
          "value": 8470.0,
          "unit": "ft3/s",
          "datetime": "2026-05-07T21:30:00.000-07:00",
          "qualifiers": [
            "P"
          ]
        }
      }
    ]
  },
  "snowpack": {
    "source": "USDA Natural Resources Conservation Service SNOTEL",
    "source_url": "https://www.nrcs.usda.gov/wps/portal/wcc/home/",
    "description": "Snow Water Equivalent (SWE) for Upper Colorado River Basin SNOTEL stations",
    "last_updated": "2026-05-08T05:14:35.954697+00:00",
    "stations": [
      {
        "station_id": "356",
        "station_name": "Berthoud Summit",
        "network": "SNOTEL",
        "state": "CO",
        "basin": "Upper Colorado River Basin",
        "date": "",
        "snow_water_equivalent_inches": null,
        "unit": "inches"
      }
    ]
  },
  "airquality": {
    "source": "Static monitoring station index (OpenAQ key required for live data)",
    "source_url": "https://openaq.org/",
    "description": "Air quality monitoring locations within 300km of Colorado River Basin center (36.5\u00b0N, 112.5\u00b0W)",
    "note": "OPENAQ_API_KEY not set; add as GitHub Actions secret for live data",
    "coverage": {
      "center_lat": 36.5,
      "center_lon": -112.5,
      "radius_km": 300
    },
    "last_updated": "2026-05-08T05:14:35.954697+00:00",
    "locations": [
      {
        "name": "Grand Canyon NPS",
        "latitude": 36.0544,
        "longitude": -112.1401,
        "locality": "Grand Canyon",
        "country": "US",
        "sensors": [
          {
            "parameter": "pm25",
            "unit": "\u00b5g/m\u00b3",
            "display_name": "PM2.5"
          },
          {
            "parameter": "ozone",
            "unit": "ppb",
            "display_name": "Ozone"
          }
        ]
      },
      {
        "name": "Flagstaff",
        "latitude": 35.1983,
        "longitude": -111.6513,
        "locality": "Flagstaff",
        "country": "US",
        "sensors": [
          {
            "parameter": "pm25",
            "unit": "\u00b5g/m\u00b3",
            "display_name": "PM2.5"
          },
          {
            "parameter": "pm10",
            "unit": "\u00b5g/m\u00b3",
            "display_name": "PM10"
          }
        ]
      },
      {
        "name": "Moab",
        "latitude": 38.5733,
        "longitude": -109.5498,
        "locality": "Moab",
        "country": "US",
        "sensors": [
          {
            "parameter": "pm25",
            "unit": "\u00b5g/m\u00b3",
            "display_name": "PM2.5"
          }
        ]
      },
      {
        "name": "Las Vegas - East Charleston",
        "latitude": 36.1699,
        "longitude": -115.1398,
        "locality": "Las Vegas",
        "country": "US",
        "sensors": [
          {
            "parameter": "pm25",
            "unit": "\u00b5g/m\u00b3",
            "display_name": "PM2.5"
          },
          {
            "parameter": "no2",
            "unit": "ppb",
            "display_name": "NO2"
          }
        ]
      },
      {
        "name": "St. George",
        "latitude": 37.0965,
        "longitude": -113.5684,
        "locality": "St. George",
        "country": "US",
        "sensors": [
          {
            "parameter": "pm25",
            "unit": "\u00b5g/m\u00b3",
            "display_name": "PM2.5"
          }
        ]
      },
      {
        "name": "Page",
        "latitude": 36.9147,
        "longitude": -111.4424,
        "locality": "Page",
        "country": "US",
        "sensors": [
          {
            "parameter": "pm25",
            "unit": "\u00b5g/m\u00b3",
            "display_name": "PM2.5"
          },
          {
            "parameter": "ozone",
            "unit": "ppb",
            "display_name": "Ozone"
          }
        ]
      }
    ]
  },
  "wildfire": {
    "source": "NASA FIRMS VIIRS NOAA-20 C2 (24h)",
    "source_url": "https://firms.modaps.eosdis.nasa.gov/",
    "description": "Active wildfires in the Colorado River Basin (31-42\u00b0N, 107-115\u00b0W), last 24 hours",
    "coverage_bbox": {
      "min_lat": 31,
      "max_lat": 42,
      "min_lon": -115,
      "max_lon": -107
    },
    "last_updated": "2026-05-08T05:14:35.954697+00:00",
    "fire_count": 16,
    "fires": [
      {
        "latitude": 38.94137,
        "longitude": -112.81863,
        "brightness": 301.2,
        "frp": 1.35,
        "confidence": "nominal",
        "acq_date": "2026-05-07",
        "acq_time": "0835",
        "satellite": "N20"
      },
      {
        "latitude": 36.3612,
        "longitude": -114.91309,
        "brightness": 307.19,
        "frp": 1.34,
        "confidence": "nominal",
        "acq_date": "2026-05-07",
        "acq_time": "0835",
        "satellite": "N20"
      },
      {
        "latitude": 33.41903,
        "longitude": -110.85958,
        "brightness": 324.71,
        "frp": 4.93,
        "confidence": "nominal",
        "acq_date": "2026-05-07",
        "acq_time": "0837",
        "satellite": "N20"
      },
      {
        "latitude": 40.31722,
        "longitude": -110.39732,
        "brightness": 324.11,
        "frp": 1.63,
        "confidence": "nominal",
        "acq_date": "2026-05-07",
        "acq_time": "0837",
        "satellite": "N20"
      },
      {
        "latitude": 40.20828,
        "longitude": -110.51103,
        "brightness": 313.77,
        "frp": 0.86,
        "confidence": "nominal",
        "acq_date": "2026-05-07",
        "acq_time": "0837",
        "satellite": "N20"
      },
      {
        "latitude": 38.9383,
        "longitude": -112.81685,
        "brightness": 314.85,
        "frp": 1.8,
        "confidence": "nominal",
        "acq_date": "2026-05-07",
        "acq_time": "1015",
        "satellite": "N20"
      },
      {
        "latitude": 36.38551,
        "longitude": -114.87684,
        "brightness": 298.44,
        "frp": 0.45,
        "confidence": "nominal",
        "acq_date": "2026-05-07",
        "acq_time": "1017",
        "satellite": "N20"
      },
      {
        "latitude": 36.35626,
        "longitude": -114.9137,
        "brightness": 301.96,
        "frp": 1.02,
        "confidence": "nominal",
        "acq_date": "2026-05-07",
        "acq_time": "1017",
        "satellite": "N20"
      },
      {
        "latitude": 33.4229,
        "longitude": -110.86131,
        "brightness": 330.01,
        "frp": 4.84,
        "confidence": "nominal",
        "acq_date": "2026-05-07",
        "acq_time": "1017",
        "satellite": "N20"
      },
      {
        "latitude": 31.14196,
        "longitude": -108.26321,
        "brightness": 341.11,
        "frp": 3.59,
        "confidence": "nominal",
        "acq_date": "2026-05-07",
        "acq_time": "1955",
        "satellite": "N20"
      },
      {
        "latitude": 31.14594,
        "longitude": -108.26427,
        "brightness": 341.49,
        "frp": 4.59,
        "confidence": "low",
        "acq_date": "2026-05-07",
        "acq_time": "1955",
        "satellite": "N20"
      },
      {
        "latitude": 33.41919,
        "longitude": -110.85758,
        "brightness": 343.06,
        "frp": 7.24,
        "confidence": "low",
        "acq_date": "2026-05-07",
        "acq_time": "1955",
        "satellite": "N20"
      },
      {
        "latitude": 33.41776,
        "longitude": -110.85892,
        "brightness": 346.5,
        "frp": 5.15,
        "confidence": "nominal",
        "acq_date": "2026-05-07",
        "acq_time": "1955",
        "satellite": "N20"
      },
      {
        "latitude": 34.59189,
        "longitude": -110.37802,
        "brightness": 344.69,
        "frp": 7.15,
        "confidence": "nominal",
        "acq_date": "2026-05-07",
        "acq_time": "1955",
        "satellite": "N20"
      },
      {
        "latitude": 38.08089,
        "longitude": -107.91714,
        "brightness": 333.41,
        "frp": 3.54,
        "confidence": "nominal",
        "acq_date": "2026-05-07",
        "acq_time": "1957",
        "satellite": "N20"
      },
      {
        "latitude": 41.68241,
        "longitude": -112.43266,
        "brightness": 351.2,
        "frp": 8.54,
        "confidence": "nominal",
        "acq_date": "2026-05-07",
        "acq_time": "1957",
        "satellite": "N20"
      }
    ]
  }
}