{
  "last_updated": "2026-04-21T18:58:51.531051+00:00",
  "coverage": {
    "region": "Colorado River Basin",
    "bbox": {
      "min_lat": 31,
      "max_lat": 42,
      "min_lon": -115,
      "max_lon": -107
    },
    "description": "Includes Colorado, Utah, Nevada, Arizona, California, New Mexico, Wyoming"
  },
  "endpoints": {
    "data": "/api/data.json",
    "water": "/api/water.json",
    "snowpack": "/api/snowpack.json",
    "airquality": "/api/airquality.json",
    "wildfire": "/api/wildfire.json",
    "meta": "/api/meta.json"
  },
  "water": {
    "source": "USGS National Water Information System",
    "source_url": "https://waterservices.usgs.gov/",
    "description": "Real-time streamflow for Colorado River Basin gauges",
    "unit": "ft3/s (cubic feet per second)",
    "last_updated": "2026-04-21T18:58:51.531051+00:00",
    "gauges": [
      {
        "site_id": "09095500",
        "site_name": "Colorado River near Cameo, CO",
        "latitude": 39.2391463,
        "longitude": -108.2661946,
        "parameter": "Streamflow",
        "latest": {
          "value": 1280.0,
          "unit": "ft3/s",
          "datetime": "2026-04-21T12:45:00.000-06:00",
          "qualifiers": [
            "P"
          ]
        }
      },
      {
        "site_id": "09380000",
        "site_name": "Colorado River at Lees Ferry, AZ",
        "latitude": 36.86433333,
        "longitude": -111.58787222,
        "parameter": "Streamflow",
        "latest": {
          "value": 8210.0,
          "unit": "ft3/s",
          "datetime": "2026-04-21T11:00:00.000-07:00",
          "qualifiers": [
            "P"
          ]
        }
      },
      {
        "site_id": "09404200",
        "site_name": "Colorado River near Grand Canyon, AZ",
        "latitude": 35.7735994,
        "longitude": -113.363544,
        "parameter": "Streamflow",
        "latest": {
          "value": 8570.0,
          "unit": "ft3/s",
          "datetime": "2026-04-21T11:30:00.000-07:00",
          "qualifiers": [
            "P"
          ]
        }
      }
    ]
  },
  "snowpack": {
    "source": "USDA Natural Resources Conservation Service SNOTEL",
    "source_url": "https://www.nrcs.usda.gov/wps/portal/wcc/home/",
    "description": "Snow Water Equivalent (SWE) for Upper Colorado River Basin SNOTEL stations",
    "last_updated": "2026-04-21T18:58:51.531051+00:00",
    "stations": [
      {
        "station_id": "356",
        "station_name": "Berthoud Summit",
        "network": "SNOTEL",
        "state": "CO",
        "basin": "Upper Colorado River Basin",
        "date": "",
        "snow_water_equivalent_inches": null,
        "unit": "inches"
      }
    ]
  },
  "airquality": {
    "source": "Static monitoring station index (OpenAQ key required for live data)",
    "source_url": "https://openaq.org/",
    "description": "Air quality monitoring locations within 300km of Colorado River Basin center (36.5\u00b0N, 112.5\u00b0W)",
    "note": "OPENAQ_API_KEY not set; add as GitHub Actions secret for live data",
    "coverage": {
      "center_lat": 36.5,
      "center_lon": -112.5,
      "radius_km": 300
    },
    "last_updated": "2026-04-21T18:58:51.531051+00:00",
    "locations": [
      {
        "name": "Grand Canyon NPS",
        "latitude": 36.0544,
        "longitude": -112.1401,
        "locality": "Grand Canyon",
        "country": "US",
        "sensors": [
          {
            "parameter": "pm25",
            "unit": "\u00b5g/m\u00b3",
            "display_name": "PM2.5"
          },
          {
            "parameter": "ozone",
            "unit": "ppb",
            "display_name": "Ozone"
          }
        ]
      },
      {
        "name": "Flagstaff",
        "latitude": 35.1983,
        "longitude": -111.6513,
        "locality": "Flagstaff",
        "country": "US",
        "sensors": [
          {
            "parameter": "pm25",
            "unit": "\u00b5g/m\u00b3",
            "display_name": "PM2.5"
          },
          {
            "parameter": "pm10",
            "unit": "\u00b5g/m\u00b3",
            "display_name": "PM10"
          }
        ]
      },
      {
        "name": "Moab",
        "latitude": 38.5733,
        "longitude": -109.5498,
        "locality": "Moab",
        "country": "US",
        "sensors": [
          {
            "parameter": "pm25",
            "unit": "\u00b5g/m\u00b3",
            "display_name": "PM2.5"
          }
        ]
      },
      {
        "name": "Las Vegas - East Charleston",
        "latitude": 36.1699,
        "longitude": -115.1398,
        "locality": "Las Vegas",
        "country": "US",
        "sensors": [
          {
            "parameter": "pm25",
            "unit": "\u00b5g/m\u00b3",
            "display_name": "PM2.5"
          },
          {
            "parameter": "no2",
            "unit": "ppb",
            "display_name": "NO2"
          }
        ]
      },
      {
        "name": "St. George",
        "latitude": 37.0965,
        "longitude": -113.5684,
        "locality": "St. George",
        "country": "US",
        "sensors": [
          {
            "parameter": "pm25",
            "unit": "\u00b5g/m\u00b3",
            "display_name": "PM2.5"
          }
        ]
      },
      {
        "name": "Page",
        "latitude": 36.9147,
        "longitude": -111.4424,
        "locality": "Page",
        "country": "US",
        "sensors": [
          {
            "parameter": "pm25",
            "unit": "\u00b5g/m\u00b3",
            "display_name": "PM2.5"
          },
          {
            "parameter": "ozone",
            "unit": "ppb",
            "display_name": "Ozone"
          }
        ]
      }
    ]
  },
  "wildfire": {
    "source": "NASA FIRMS VIIRS NOAA-20 C2 (24h)",
    "source_url": "https://firms.modaps.eosdis.nasa.gov/",
    "description": "Active wildfires in the Colorado River Basin (31-42\u00b0N, 107-115\u00b0W), last 24 hours",
    "coverage_bbox": {
      "min_lat": 31,
      "max_lat": 42,
      "min_lon": -115,
      "max_lon": -107
    },
    "last_updated": "2026-04-21T18:58:51.531051+00:00",
    "fire_count": 15,
    "fires": [
      {
        "latitude": 38.93895,
        "longitude": -112.81506,
        "brightness": 301.91,
        "frp": 1.87,
        "confidence": "nominal",
        "acq_date": "2026-04-20",
        "acq_time": "0856",
        "satellite": "N20"
      },
      {
        "latitude": 36.35759,
        "longitude": -114.91295,
        "brightness": 309.69,
        "frp": 2.03,
        "confidence": "nominal",
        "acq_date": "2026-04-20",
        "acq_time": "0856",
        "satellite": "N20"
      },
      {
        "latitude": 38.9406,
        "longitude": -112.81888,
        "brightness": 301.74,
        "frp": 2.21,
        "confidence": "nominal",
        "acq_date": "2026-04-20",
        "acq_time": "1036",
        "satellite": "N20"
      },
      {
        "latitude": 38.938,
        "longitude": -112.81908,
        "brightness": 302.91,
        "frp": 2.28,
        "confidence": "nominal",
        "acq_date": "2026-04-20",
        "acq_time": "1036",
        "satellite": "N20"
      },
      {
        "latitude": 33.41865,
        "longitude": -110.85931,
        "brightness": 347.06,
        "frp": 11.08,
        "confidence": "nominal",
        "acq_date": "2026-04-20",
        "acq_time": "2017",
        "satellite": "N20"
      },
      {
        "latitude": 37.31687,
        "longitude": -107.78236,
        "brightness": 344.28,
        "frp": 7.11,
        "confidence": "nominal",
        "acq_date": "2026-04-20",
        "acq_time": "2017",
        "satellite": "N20"
      },
      {
        "latitude": 37.53309,
        "longitude": -108.442,
        "brightness": 353.95,
        "frp": 147.97,
        "confidence": "nominal",
        "acq_date": "2026-04-20",
        "acq_time": "2017",
        "satellite": "N20"
      },
      {
        "latitude": 39.43636,
        "longitude": -107.61975,
        "brightness": 334.11,
        "frp": 2.64,
        "confidence": "nominal",
        "acq_date": "2026-04-20",
        "acq_time": "2017",
        "satellite": "N20"
      },
      {
        "latitude": 38.93785,
        "longitude": -112.81993,
        "brightness": 298.65,
        "frp": 1.28,
        "confidence": "nominal",
        "acq_date": "2026-04-21",
        "acq_time": "0835",
        "satellite": "N20"
      },
      {
        "latitude": 36.35916,
        "longitude": -114.91411,
        "brightness": 296.89,
        "frp": 1.0,
        "confidence": "nominal",
        "acq_date": "2026-04-21",
        "acq_time": "0835",
        "satellite": "N20"
      },
      {
        "latitude": 33.41781,
        "longitude": -110.86115,
        "brightness": 303.95,
        "frp": 1.99,
        "confidence": "nominal",
        "acq_date": "2026-04-21",
        "acq_time": "0837",
        "satellite": "N20"
      },
      {
        "latitude": 40.1346,
        "longitude": -110.29738,
        "brightness": 296.07,
        "frp": 0.63,
        "confidence": "nominal",
        "acq_date": "2026-04-21",
        "acq_time": "0837",
        "satellite": "N20"
      },
      {
        "latitude": 40.13063,
        "longitude": -110.29734,
        "brightness": 301.75,
        "frp": 0.6,
        "confidence": "nominal",
        "acq_date": "2026-04-21",
        "acq_time": "0837",
        "satellite": "N20"
      },
      {
        "latitude": 36.35938,
        "longitude": -114.90949,
        "brightness": 297.97,
        "frp": 0.56,
        "confidence": "nominal",
        "acq_date": "2026-04-21",
        "acq_time": "1017",
        "satellite": "N20"
      },
      {
        "latitude": 36.35958,
        "longitude": -114.9127,
        "brightness": 296.08,
        "frp": 0.84,
        "confidence": "nominal",
        "acq_date": "2026-04-21",
        "acq_time": "1017",
        "satellite": "N20"
      }
    ]
  }
}